@Phoenix-GPSRecorder/v1.0.2/EGM96
$GPGGA,023043,3242.4363,N,11709.49707,W,1,04,1.0,40,M,000.0,M,,*7F
$GPRMC,023043,A,3242.4363,N,11709.49707,W,000.0,000.0,120714,,,A*53
$GPGGA,023044,3242.4363,N,11709.49707,W,1,04,1.0,40,M,000.0,M,,*78
$GPRMC,023044,A,3242.4363,N,11709.49707,W,000.0,000.0,120714,,,A*54
$GPGGA,023045,3242.4363,N,11709.49707,W,1,04,1.0,40,M,000.0,M,,*79
$GPRMC,023045,A,3242.4363,N,11709.49707,W,000.0,000.0,120714,,,A*55
$GPGGA,023047,3242.4363,N,11709.49707,W,1,04,1.0,40,M,000.0,M,,*7B
$GPRMC,023047,A,3242.4363,N,11709.49707,W,000.0,000.0,120714,,,A*57
$GPGGA,023048,3242.4363,N,11709.49707,W,1,04,1.0,40,M,000.0,M,,*74
$GPRMC,023048,A,3242.4363,N,11709.49707,W,000.0,000.0,120714,,,A*58
$GPGGA,023049,3242.4363,N,11709.49707,W,1,04,1.0,40,M,000.0,M,,*75
$GPRMC,023049,A,3242.4363,N,11709.49707,W,000.0,000.0,120714,,,A*59
$GPGGA,023051,3242.4363,N,11709.49707,W,1,04,1.0,40,M,000.0,M,,*7C
$GPRMC,023051,A,3242.4363,N,11709.49707,W,000.0,000.0,120714,,,A*50
$GPGGA,023052,3242.4363,N,11709.49707,W,1,04,1.0,40,M,000.0,M,,*7F
$GPRMC,023052,A,3242.4363,N,11709.49707,W,000.0,000.0,120714,,,A*53
$GPGGA,023053,3242.4363,N,11709.49707,W,1,04,1.0,40,M,000.0,M,,*7E
$GPRMC,023053,A,3242.4363,N,11709.49707,W,000.0,000.0,120714,,,A*52
$GPGGA,023055,3242.4363,N,11709.49707,W,1,04,1.0,40,M,000.0,M,,*78
$GPRMC,023055,A,3242.4363,N,11709.49707,W,000.0,000.0,120714,,,A*54
$GPGGA,023056,3242.4363,N,11709.49707,W,1,04,1.0,40,M,000.0,M,,*7B
$GPRMC,023056,A,3242.4363,N,11709.49707,W,000.0,000.0,120714,,,A*57
$GPGGA,023057,3242.4363,N,11709.49707,W,1,04,1.0,40,M,000.0,M,,*7A
$GPRMC,023057,A,3242.4363,N,11709.49707,W,000.0,000.0,120714,,,A*56
$GPGGA,023059,3242.4363,N,11709.49707,W,1,04,1.0,40,M,000.0,M,,*74
$GPRMC,023059,A,3242.4363,N,11709.49707,W,000.0,000.0,120714,,,A*58
$GPGGA,023100,3242.4363,N,11709.49707,W,1,04,1.0,40,M,000.0,M,,*79
$GPRMC,023100,A,3242.4363,N,11709.49707,W,000.0,000.0,120714,,,A*55
$GPGGA,023102,3242.43995,N,11709.49858,W,1,04,1.0,44,M,000.0,M,,*4A
$GPRMC,023102,A,3242.43995,N,11709.49858,W,000.0,000.0,120714,,,A*62
$GPGGA,023103,3242.44153,N,11709.49916,W,1,04,1.0,52,M,000.0,M,,*42
$GPRMC,023103,A,3242.44153,N,11709.49916,W,000.0,000.0,120714,,,A*6D
$GPGGA,023105,3242.44725,N,11709.50061,W,1,04,1.0,56,M,000.0,M,,*46
$GPRMC,023105,A,3242.44725,N,11709.50061,W,000.0,000.0,120714,,,A*6D
$GPGGA,023106,3242.45328,N,11709.50156,W,1,04,1.0,56,M,000.0,M,,*48
$GPRMC,023106,A,3242.45328,N,11709.50156,W,000.0,000.0,120714,,,A*63
$GPGGA,023108,3242.45624,N,11709.50113,W,1,04,1.0,55,M,000.0,M,,*4D
$GPRMC,023108,A,3242.45624,N,11709.50113,W,000.0,000.0,120714,,,A*65
$GPGGA,023110,3242.46735,N,11709.49785,W,1,04,1.0,53,M,000.0,M,,*41
$GPRMC,023110,A,3242.46735,N,11709.49785,W,000.0,000.0,120714,,,A*6F
$GPGGA,023111,3242.47785,N,11709.49531,W,1,04,1.0,49,M,000.0,M,,*4C
$GPRMC,023111,A,3242.47785,N,11709.49531,W,000.0,000.0,120714,,,A*69
$GPGGA,023113,3242.48402,N,11709.49561,W,1,04,1.0,48,M,000.0,M,,*49
$GPRMC,023113,A,3242.48402,N,11709.49561,W,000.0,000.0,120714,,,A*6D
$GPGGA,023115,3242.49293,N,11709.49517,W,1,04,1.0,50,M,000.0,M,,*48
$GPRMC,023115,A,3242.49293,N,11709.49517,W,000.0,000.0,120714,,,A*65
$GPGGA,023116,3242.49926,N,11709.49635,W,1,04,1.0,50,M,000.0,M,,*4D
$GPRMC,023116,A,3242.49926,N,11709.49635,W,000.0,000.0,120714,,,A*60
$GPGGA,023118,3242.49862,N,11709.49479,W,1,04,1.0,53,M,000.0,M,,*4B
$GPRMC,023118,A,3242.49862,N,11709.49479,W,000.0,000.0,120714,,,A*65
$GPGGA,023120,3242.50085,N,11709.49721,W,1,04,1.0,48,M,000.0,M,,*4D
$GPRMC,023120,A,3242.50085,N,11709.49721,W,000.0,000.0,120714,,,A*69
$GPGGA,023121,3242.50289,N,11709.49981,W,1,04,1.0,45,M,000.0,M,,*4B
$GPRMC,023121,A,3242.50289,N,11709.49981,W,000.0,000.0,120714,,,A*62
$GPGGA,023123,3242.50424,N,11709.50073,W,1,04,1.0,44,M,000.0,M,,*45
$GPRMC,023123,A,3242.50424,N,11709.50073,W,000.0,000.0,120714,,,A*6D
$GPGGA,023125,3242.50738,N,11709.50184,W,1,04,1.0,45,M,000.0,M,,*45
$GPRMC,023125,A,3242.50738,N,11709.50184,W,000.0,000.0,120714,,,A*6C
$GPGGA,023126,3242.5124,N,11709.50088,W,1,04,1.0,41,M,000.0,M,,*74
$GPRMC,023126,A,3242.5124,N,11709.50088,W,000.0,000.0,120714,,,A*59
$GPGGA,023128,3242.51898,N,11709.49898,W,1,04,1.0,40,M,000.0,M,,*45
$GPRMC,023128,A,3242.51898,N,11709.49898,W,000.0,000.0,120714,,,A*69
$GPGGA,023130,3242.52987,N,11709.4982,W,1,04,1.0,41,M,000.0,M,,*72
$GPRMC,023130,A,3242.52987,N,11709.4982,W,000.0,000.0,120714,,,A*5F
$GPGGA,023131,3242.53633,N,11709.49748,W,1,04,1.0,41,M,000.0,M,,*43
$GPRMC,023131,A,3242.53633,N,11709.49748,W,000.0,000.0,120714,,,A*6E
$GPGGA,023133,3242.53964,N,11709.49638,W,1,04,1.0,40,M,000.0,M,,*4B
$GPRMC,023133,A,3242.53964,N,11709.49638,W,000.0,000.0,120714,,,A*67
$GPGGA,023135,3242.54279,N,11709.49723,W,1,04,1.0,41,M,000.0,M,,*47
$GPRMC,023135,A,3242.54279,N,11709.49723,W,000.0,000.0,120714,,,A*6A
$GPGGA,023137,3242.54318,N,11709.49682,W,1,04,1.0,40,M,000.0,M,,*48
$GPRMC,023137,A,3242.54318,N,11709.49682,W,000.0,000.0,120714,,,A*64
$GPGGA,023138,3242.54981,N,11709.49713,W,1,04,1.0,37,M,000.0,M,,*44
$GPRMC,023138,A,3242.54981,N,11709.49713,W,000.0,000.0,120714,,,A*68
$GPGGA,023140,3242.55247,N,11709.49441,W,1,04,1.0,33,M,000.0,M,,*4B
$GPRMC,023140,A,3242.55247,N,11709.49441,W,000.0,000.0,120714,,,A*63
$GPGGA,023142,3242.55635,N,11709.4923,W,1,04,1.0,27,M,000.0,M,,*7D
$GPRMC,023142,A,3242.55635,N,11709.4923,W,000.0,000.0,120714,,,A*50
$GPGGA,023145,3242.56029,N,11709.49285,W,1,04,1.0,24,M,000.0,M,,*4F
$GPRMC,023145,A,3242.56029,N,11709.49285,W,000.0,000.0,120714,,,A*61
$GPGGA,023148,3242.56402,N,11709.49347,W,1,04,1.0,20,M,000.0,M,,*44
$GPRMC,023148,A,3242.56402,N,11709.49347,W,000.0,000.0,120714,,,A*6E
$GPGGA,023150,3242.56633,N,11709.4927,W,1,04,1.0,17,M,000.0,M,,*7C
$GPRMC,023150,A,3242.56633,N,11709.4927,W,000.0,000.0,120714,,,A*52
$GPGGA,023152,3242.57013,N,11709.49272,W,1,04,1.0,13,M,000.0,M,,*4D
$GPRMC,023152,A,3242.57013,N,11709.49272,W,000.0,000.0,120714,,,A*67
$GPGGA,023154,3242.58324,N,11709.49808,W,1,04,1.0,11,M,000.0,M,,*46
$GPRMC,023154,A,3242.58324,N,11709.49808,W,000.0,000.0,120714,,,A*6E
$GPGGA,023158,3242.60221,N,11709.49668,W,1,04,1.0,10,M,000.0,M,,*4C
$GPRMC,023158,A,3242.60221,N,11709.49668,W,000.0,000.0,120714,,,A*65
$GPGGA,023203,3242.61637,N,11709.50168,W,1,04,1.0,9,M,000.0,M,,*74
$GPRMC,023203,A,3242.61637,N,11709.50168,W,000.0,000.0,120714,,,A*65
$GPGGA,023204,3242.62048,N,11709.5006,W,1,04,1.0,8,M,000.0,M,,*46
$GPRMC,023204,A,3242.62048,N,11709.5006,W,000.0,000.0,120714,,,A*56
$GPGGA,023206,3242.62142,N,11709.50022,W,1,04,1.0,9,M,000.0,M,,*78
$GPRMC,023206,A,3242.62142,N,11709.50022,W,000.0,000.0,120714,,,A*69
$GPGGA,023208,3242.6239,N,11709.50005,W,1,04,1.0,9,M,000.0,M,,*4E
$GPRMC,023208,A,3242.6239,N,11709.50005,W,000.0,000.0,120714,,,A*5F
$GPGGA,023209,3242.62537,N,11709.50003,W,1,04,1.0,10,M,000.0,M,,*4A
$GPRMC,023209,A,3242.62537,N,11709.50003,W,000.0,000.0,120714,,,A*63
$GPGGA,023211,3242.62619,N,11709.5001,W,1,04,1.0,10,M,000.0,M,,*7E
$GPRMC,023211,A,3242.62619,N,11709.5001,W,000.0,000.0,120714,,,A*57
$GPGGA,023213,3242.62777,N,11709.49998,W,1,04,1.0,10,M,000.0,M,,*44
$GPRMC,023213,A,3242.62777,N,11709.49998,W,000.0,000.0,120714,,,A*6D
$GPGGA,023214,3242.62868,N,11709.49935,W,1,04,1.0,11,M,000.0,M,,*44
$GPRMC,023214,A,3242.62868,N,11709.49935,W,000.0,000.0,120714,,,A*6C
$GPGGA,023216,3242.62907,N,11709.49828,W,1,04,1.0,13,M,000.0,M,,*41
$GPRMC,023216,A,3242.62907,N,11709.49828,W,000.0,000.0,120714,,,A*6B
$GPGGA,023218,3242.63095,N,11709.49543,W,1,04,1.0,14,M,000.0,M,,*4B
$GPRMC,023218,A,3242.63095,N,11709.49543,W,000.0,000.0,120714,,,A*66
$GPGGA,023220,3242.65455,N,11709.49662,W,1,04,1.0,13,M,000.0,M,,*49
$GPRMC,023220,A,3242.65455,N,11709.49662,W,000.0,000.0,120714,,,A*63
$GPGGA,023221,3242.66923,N,11709.49803,W,1,04,1.0,8,M,000.0,M,,*74
$GPRMC,023221,A,3242.66923,N,11709.49803,W,000.0,000.0,120714,,,A*64
$GPGGA,023223,3242.67934,N,11709.49921,W,1,04,1.0,7,M,000.0,M,,*7F
$GPRMC,023223,A,3242.67934,N,11709.49921,W,000.0,000.0,120714,,,A*60
$GPGGA,023225,3242.68269,N,11709.50064,W,1,04,1.0,7,M,000.0,M,,*75
$GPRMC,023225,A,3242.68269,N,11709.50064,W,000.0,000.0,120714,,,A*6A
$GPGGA,023227,3242.68668,N,11709.50233,W,1,04,1.0,6,M,000.0,M,,*73
$GPRMC,023227,A,3242.68668,N,11709.50233,W,000.0,000.0,120714,,,A*6D
$GPGGA,023229,3242.69139,N,11709.50913,W,1,04,1.0,4,M,000.0,M,,*74
$GPRMC,023229,A,3242.69139,N,11709.50913,W,000.0,000.0,120714,,,A*68
$GPGGA,023230,3242.69305,N,11709.51735,W,1,04,1.0,1,M,000.0,M,,*7F
$GPRMC,023230,A,3242.69305,N,11709.51735,W,000.0,000.0,120714,,,A*66
$GPGGA,023232,3242.69369,N,11709.52201,W,1,04,1.0,0,M,000.0,M,,*77
$GPRMC,023232,A,3242.69369,N,11709.52201,W,000.0,000.0,120714,,,A*6F
$GPGGA,023234,3242.69524,N,11709.53083,W,1,04,1.0,0,M,000.0,M,,*77
$GPRMC,023234,A,3242.69524,N,11709.53083,W,000.0,000.0,120714,,,A*6F
$GPGGA,023236,3242.69499,N,11709.53803,W,1,04,1.0,1,M,000.0,M,,*73
$GPRMC,023236,A,3242.69499,N,11709.53803,W,000.0,000.0,120714,,,A*6A
$GPGGA,023237,3242.69414,N,11709.54304,W,1,04,1.0,1,M,000.0,M,,*7C
$GPRMC,023237,A,3242.69414,N,11709.54304,W,000.0,000.0,120714,,,A*65
$GPGGA,023239,3242.69437,N,11709.54449,W,1,04,1.0,2,M,000.0,M,,*7E
$GPRMC,023239,A,3242.69437,N,11709.54449,W,000.0,000.0,120714,,,A*64
$GPGGA,023241,3242.69354,N,11709.54649,W,1,04,1.0,3,M,000.0,M,,*70
$GPRMC,023241,A,3242.69354,N,11709.54649,W,000.0,000.0,120714,,,A*6B
$GPGGA,023242,3242.69527,N,11709.54764,W,1,04,1.0,3,M,000.0,M,,*7F
$GPRMC,023242,A,3242.69527,N,11709.54764,W,000.0,000.0,120714,,,A*64
$GPGGA,023244,3242.6967,N,11709.54788,W,1,04,1.0,3,M,000.0,M,,*4A
$GPRMC,023244,A,3242.6967,N,11709.54788,W,000.0,000.0,120714,,,A*51
$GPGGA,023246,3242.69724,N,11709.5468,W,1,04,1.0,5,M,000.0,M,,*47
$GPRMC,023246,A,3242.69724,N,11709.5468,W,000.0,000.0,120714,,,A*5A
$GPGGA,023247,3242.69765,N,11709.54733,W,1,04,1.0,7,M,000.0,M,,*78
$GPRMC,023247,A,3242.69765,N,11709.54733,W,000.0,000.0,120714,,,A*67
$GPGGA,023249,3242.69782,N,11709.54754,W,1,04,1.0,7,M,000.0,M,,*7E
$GPRMC,023249,A,3242.69782,N,11709.54754,W,000.0,000.0,120714,,,A*61
$GPGGA,023251,3242.69775,N,11709.54748,W,1,04,1.0,7,M,000.0,M,,*72
$GPRMC,023251,A,3242.69775,N,11709.54748,W,000.0,000.0,120714,,,A*6D
$GPGGA,023253,3242.69775,N,11709.54748,W,1,04,1.0,7,M,000.0,M,,*70
$GPRMC,023253,A,3242.69775,N,11709.54748,W,000.0,000.0,120714,,,A*6F
$GPGGA,023254,3242.69775,N,11709.54748,W,1,04,1.0,8,M,000.0,M,,*78
$GPRMC,023254,A,3242.69775,N,11709.54748,W,000.0,000.0,120714,,,A*68
$GPGGA,023256,3242.69775,N,11709.54748,W,1,04,1.0,7,M,000.0,M,,*75
$GPRMC,023256,A,3242.69775,N,11709.54748,W,000.0,000.0,120714,,,A*6A
$GPGGA,023258,3242.69775,N,11709.54748,W,1,04,1.0,8,M,000.0,M,,*74
$GPRMC,023258,A,3242.69775,N,11709.54748,W,000.0,000.0,120714,,,A*64
$GPGGA,023259,3242.69775,N,11709.54748,W,1,04,1.0,8,M,000.0,M,,*75
$GPRMC,023259,A,3242.69775,N,11709.54748,W,000.0,000.0,120714,,,A*65
$GPGGA,023301,3242.69775,N,11709.54748,W,1,04,1.0,8,M,000.0,M,,*79
$GPRMC,023301,A,3242.69775,N,11709.54748,W,000.0,000.0,120714,,,A*69
$GPGGA,023303,3242.69897,N,11709.55139,W,1,04,1.0,8,M,000.0,M,,*79
$GPRMC,023303,A,3242.69897,N,11709.55139,W,000.0,000.0,120714,,,A*69
$GPGGA,023304,3242.69821,N,11709.55397,W,1,04,1.0,9,M,000.0,M,,*74
$GPRMC,023304,A,3242.69821,N,11709.55397,W,000.0,000.0,120714,,,A*65
$GPGGA,023306,3242.69722,N,11709.56933,W,1,04,1.0,7,M,000.0,M,,*73
$GPRMC,023306,A,3242.69722,N,11709.56933,W,000.0,000.0,120714,,,A*6C
$GPGGA,023308,3242.69752,N,11709.57345,W,1,04,1.0,5,M,000.0,M,,*72
$GPRMC,023308,A,3242.69752,N,11709.57345,W,000.0,000.0,120714,,,A*6F
$GPGGA,023310,3242.69773,N,11709.58169,W,1,04,1.0,5,M,000.0,M,,*7B
$GPRMC,023310,A,3242.69773,N,11709.58169,W,000.0,000.0,120714,,,A*66
$GPGGA,023311,3242.69731,N,11709.58867,W,1,04,1.0,4,M,000.0,M,,*7A
$GPRMC,023311,A,3242.69731,N,11709.58867,W,000.0,000.0,120714,,,A*66
$GPGGA,023313,3242.69783,N,11709.59181,W,1,04,1.0,3,M,000.0,M,,*76
$GPRMC,023313,A,3242.69783,N,11709.59181,W,000.0,000.0,120714,,,A*6D
$GPGGA,023315,3242.69662,N,11709.59495,W,1,04,1.0,4,M,000.0,M,,*79
$GPRMC,023315,A,3242.69662,N,11709.59495,W,000.0,000.0,120714,,,A*65
$GPGGA,023316,3242.69686,N,11709.59789,W,1,04,1.0,6,M,000.0,M,,*7C
$GPRMC,023316,A,3242.69686,N,11709.59789,W,000.0,000.0,120714,,,A*62
$GPGGA,023318,3242.69714,N,11709.60035,W,1,04,1.0,8,M,000.0,M,,*7C
$GPRMC,023318,A,3242.69714,N,11709.60035,W,000.0,000.0,120714,,,A*6C
$GPGGA,023320,3242.69721,N,11709.60173,W,1,04,1.0,8,M,000.0,M,,*72
$GPRMC,023320,A,3242.69721,N,11709.60173,W,000.0,000.0,120714,,,A*62
$GPGGA,023321,3242.69704,N,11709.60176,W,1,04,1.0,9,M,000.0,M,,*70
$GPRMC,023321,A,3242.69704,N,11709.60176,W,000.0,000.0,120714,,,A*61
$GPGGA,023323,3242.69704,N,11709.60176,W,1,04,1.0,9,M,000.0,M,,*72
$GPRMC,023323,A,3242.69704,N,11709.60176,W,000.0,000.0,120714,,,A*63
$GPGGA,023325,3242.69704,N,11709.60176,W,1,04,1.0,10,M,000.0,M,,*4C
$GPRMC,023325,A,3242.69704,N,11709.60176,W,000.0,000.0,120714,,,A*65
$GPGGA,023327,3242.69704,N,11709.60176,W,1,04,1.0,12,M,000.0,M,,*4C
$GPRMC,023327,A,3242.69704,N,11709.60176,W,000.0,000.0,120714,,,A*67
$GPGGA,023328,3242.69704,N,11709.60176,W,1,04,1.0,12,M,000.0,M,,*43
$GPRMC,023328,A,3242.69704,N,11709.60176,W,000.0,000.0,120714,,,A*68
$GPGGA,023330,3242.69704,N,11709.60176,W,1,04,1.0,12,M,000.0,M,,*4A
$GPRMC,023330,A,3242.69704,N,11709.60176,W,000.0,000.0,120714,,,A*61
$GPGGA,023332,3242.69704,N,11709.60176,W,1,04,1.0,12,M,000.0,M,,*48
$GPRMC,023332,A,3242.69704,N,11709.60176,W,000.0,000.0,120714,,,A*63
$GPGGA,023333,3242.69704,N,11709.60176,W,1,04,1.0,12,M,000.0,M,,*49
$GPRMC,023333,A,3242.69704,N,11709.60176,W,000.0,000.0,120714,,,A*62
$GPGGA,023335,3242.69704,N,11709.60176,W,1,04,1.0,12,M,000.0,M,,*4F
$GPRMC,023335,A,3242.69704,N,11709.60176,W,000.0,000.0,120714,,,A*64
$GPGGA,023337,3242.69704,N,11709.60176,W,1,04,1.0,12,M,000.0,M,,*4D
$GPRMC,023337,A,3242.69704,N,11709.60176,W,000.0,000.0,120714,,,A*66
$GPGGA,023338,3242.69704,N,11709.60176,W,1,04,1.0,12,M,000.0,M,,*42
$GPRMC,023338,A,3242.69704,N,11709.60176,W,000.0,000.0,120714,,,A*69
$GPGGA,023340,3242.69704,N,11709.60176,W,1,04,1.0,12,M,000.0,M,,*4D
$GPRMC,023340,A,3242.69704,N,11709.60176,W,000.0,000.0,120714,,,A*66
$GPGGA,023342,3242.69704,N,11709.60176,W,1,04,1.0,12,M,000.0,M,,*4F
$GPRMC,023342,A,3242.69704,N,11709.60176,W,000.0,000.0,120714,,,A*64
$GPGGA,023343,3242.69704,N,11709.60176,W,1,04,1.0,12,M,000.0,M,,*4E
$GPRMC,023343,A,3242.69704,N,11709.60176,W,000.0,000.0,120714,,,A*65
$GPGGA,023345,3242.69704,N,11709.60176,W,1,04,1.0,12,M,000.0,M,,*48
$GPRMC,023345,A,3242.69704,N,11709.60176,W,000.0,000.0,120714,,,A*63
$GPGGA,023347,3242.69704,N,11709.60176,W,1,04,1.0,12,M,000.0,M,,*4A
$GPRMC,023347,A,3242.69704,N,11709.60176,W,000.0,000.0,120714,,,A*61
$GPGGA,023348,3242.69704,N,11709.60176,W,1,04,1.0,12,M,000.0,M,,*45
$GPRMC,023348,A,3242.69704,N,11709.60176,W,000.0,000.0,120714,,,A*6E
$GPGGA,023350,3242.69704,N,11709.60176,W,1,04,1.0,12,M,000.0,M,,*4C
$GPRMC,023350,A,3242.69704,N,11709.60176,W,000.0,000.0,120714,,,A*67
$GPGGA,023352,3242.69704,N,11709.60176,W,1,04,1.0,12,M,000.0,M,,*4E
$GPRMC,023352,A,3242.69704,N,11709.60176,W,000.0,000.0,120714,,,A*65
$GPGGA,023354,3242.69704,N,11709.60176,W,1,04,1.0,12,M,000.0,M,,*48
$GPRMC,023354,A,3242.69704,N,11709.60176,W,000.0,000.0,120714,,,A*63
$GPGGA,023355,3242.69704,N,11709.60176,W,1,04,1.0,12,M,000.0,M,,*49
$GPRMC,023355,A,3242.69704,N,11709.60176,W,000.0,000.0,120714,,,A*62
$GPGGA,023357,3242.69704,N,11709.60176,W,1,04,1.0,12,M,000.0,M,,*4B
$GPRMC,023357,A,3242.69704,N,11709.60176,W,000.0,000.0,120714,,,A*60
$GPGGA,023359,3242.69543,N,11709.60466,W,1,04,1.0,12,M,000.0,M,,*40
$GPRMC,023359,A,3242.69543,N,11709.60466,W,000.0,000.0,120714,,,A*6B
$GPGGA,023400,3242.695,N,11709.60819,W,1,04,1.0,12,M,000.0,M,,*48
$GPRMC,023400,A,3242.695,N,11709.60819,W,000.0,000.0,120714,,,A*63
$GPGGA,023402,3242.69489,N,11709.60969,W,1,04,1.0,12,M,000.0,M,,*4C
$GPRMC,023402,A,3242.69489,N,11709.60969,W,000.0,000.0,120714,,,A*67
$GPGGA,023404,3242.69373,N,11709.61359,W,1,04,1.0,11,M,000.0,M,,*43
$GPRMC,023404,A,3242.69373,N,11709.61359,W,000.0,000.0,120714,,,A*6B
$GPGGA,023405,3242.69325,N,11709.61829,W,1,04,1.0,12,M,000.0,M,,*4E
$GPRMC,023405,A,3242.69325,N,11709.61829,W,000.0,000.0,120714,,,A*65
$GPGGA,023407,3242.69343,N,11709.62112,W,1,04,1.0,12,M,000.0,M,,*4E
$GPRMC,023407,A,3242.69343,N,11709.62112,W,000.0,000.0,120714,,,A*65
$GPGGA,023409,3242.69373,N,11709.62646,W,1,04,1.0,13,M,000.0,M,,*44
$GPRMC,023409,A,3242.69373,N,11709.62646,W,000.0,000.0,120714,,,A*6E
$GPGGA,023410,3242.69375,N,11709.63303,W,1,04,1.0,10,M,000.0,M,,*4C
$GPRMC,023410,A,3242.69375,N,11709.63303,W,000.0,000.0,120714,,,A*65
$GPGGA,023412,3242.69374,N,11709.63558,W,1,04,1.0,10,M,000.0,M,,*47
$GPRMC,023412,A,3242.69374,N,11709.63558,W,000.0,000.0,120714,,,A*6E
$GPGGA,023414,3242.693,N,11709.64096,W,1,04,1.0,9,M,000.0,M,,*7A
$GPRMC,023414,A,3242.693,N,11709.64096,W,000.0,000.0,120714,,,A*6B
$GPGGA,023415,3242.69291,N,11709.64183,W,1,04,1.0,7,M,000.0,M,,*79
$GPRMC,023415,A,3242.69291,N,11709.64183,W,000.0,000.0,120714,,,A*66
$GPGGA,023417,3242.69283,N,11709.64285,W,1,04,1.0,7,M,000.0,M,,*7D
$GPRMC,023417,A,3242.69283,N,11709.64285,W,000.0,000.0,120714,,,A*62
$GPGGA,023419,3242.69305,N,11709.64121,W,1,04,1.0,6,M,000.0,M,,*70
$GPRMC,023419,A,3242.69305,N,11709.64121,W,000.0,000.0,120714,,,A*6E
$GPGGA,023420,3242.69284,N,11709.64066,W,1,04,1.0,7,M,000.0,M,,*71
$GPRMC,023420,A,3242.69284,N,11709.64066,W,000.0,000.0,120714,,,A*6E
$GPGGA,023422,3242.69259,N,11709.64036,W,1,04,1.0,7,M,000.0,M,,*76
$GPRMC,023422,A,3242.69259,N,11709.64036,W,000.0,000.0,120714,,,A*69
$GPGGA,023424,3242.69144,N,11709.63947,W,1,04,1.0,10,M,000.0,M,,*41
$GPRMC,023424,A,3242.69144,N,11709.63947,W,000.0,000.0,120714,,,A*68
$GPGGA,023425,3242.68989,N,11709.63846,W,1,04,1.0,12,M,000.0,M,,*4A
$GPRMC,023425,A,3242.68989,N,11709.63846,W,000.0,000.0,120714,,,A*61
$GPGGA,023427,3242.6895,N,11709.63834,W,1,04,1.0,13,M,000.0,M,,*78
$GPRMC,023427,A,3242.6895,N,11709.63834,W,000.0,000.0,120714,,,A*52
$GPGGA,023429,3242.68868,N,11709.63676,W,1,04,1.0,16,M,000.0,M,,*41
$GPRMC,023429,A,3242.68868,N,11709.63676,W,000.0,000.0,120714,,,A*6E
$GPGGA,023430,3242.68868,N,11709.63676,W,1,04,1.0,15,M,000.0,M,,*4A
$GPRMC,023430,A,3242.68868,N,11709.63676,W,000.0,000.0,120714,,,A*66
$GPGGA,023432,3242.68868,N,11709.63676,W,1,04,1.0,16,M,000.0,M,,*4B
$GPRMC,023432,A,3242.68868,N,11709.63676,W,000.0,000.0,120714,,,A*64
$GPGGA,023434,3242.68868,N,11709.63676,W,1,04,1.0,16,M,000.0,M,,*4D
$GPRMC,023434,A,3242.68868,N,11709.63676,W,000.0,000.0,120714,,,A*62
$GPGGA,023436,3242.68868,N,11709.63676,W,1,04,1.0,16,M,000.0,M,,*4F
$GPRMC,023436,A,3242.68868,N,11709.63676,W,000.0,000.0,120714,,,A*60
$GPGGA,023437,3242.68868,N,11709.63676,W,1,04,1.0,16,M,000.0,M,,*4E
$GPRMC,023437,A,3242.68868,N,11709.63676,W,000.0,000.0,120714,,,A*61
$GPGGA,023439,3242.68868,N,11709.63676,W,1,04,1.0,15,M,000.0,M,,*43
$GPRMC,023439,A,3242.68868,N,11709.63676,W,000.0,000.0,120714,,,A*6F
$GPGGA,023441,3242.68868,N,11709.63676,W,1,04,1.0,15,M,000.0,M,,*4C
$GPRMC,023441,A,3242.68868,N,11709.63676,W,000.0,000.0,120714,,,A*60
$GPGGA,023442,3242.68916,N,11709.63768,W,1,04,1.0,14,M,000.0,M,,*48
$GPRMC,023442,A,3242.68916,N,11709.63768,W,000.0,000.0,120714,,,A*65
$GPGGA,023444,3242.68921,N,11709.63895,W,1,04,1.0,15,M,000.0,M,,*46
$GPRMC,023444,A,3242.68921,N,11709.63895,W,000.0,000.0,120714,,,A*6A
$GPGGA,023446,3242.68944,N,11709.6427,W,1,04,1.0,14,M,000.0,M,,*70
$GPRMC,023446,A,3242.68944,N,11709.6427,W,000.0,000.0,120714,,,A*5D
$GPGGA,023448,3242.68952,N,11709.64692,W,1,04,1.0,14,M,000.0,M,,*41
$GPRMC,023448,A,3242.68952,N,11709.64692,W,000.0,000.0,120714,,,A*6C
$GPGGA,023449,3242.68961,N,11709.65155,W,1,04,1.0,13,M,000.0,M,,*4A
$GPRMC,023449,A,3242.68961,N,11709.65155,W,000.0,000.0,120714,,,A*60
$GPGGA,023451,3242.68998,N,11709.65541,W,1,04,1.0,13,M,000.0,M,,*44
$GPRMC,023451,A,3242.68998,N,11709.65541,W,000.0,000.0,120714,,,A*6E
$GPGGA,023453,3242.69015,N,11709.66239,W,1,04,1.0,13,M,000.0,M,,*40
$GPRMC,023453,A,3242.69015,N,11709.66239,W,000.0,000.0,120714,,,A*6A
$GPGGA,023454,3242.69002,N,11709.66748,W,1,04,1.0,12,M,000.0,M,,*43
$GPRMC,023454,A,3242.69002,N,11709.66748,W,000.0,000.0,120714,,,A*68
$GPGGA,023456,3242.6902,N,11709.66839,W,1,04,1.0,11,M,000.0,M,,*7B
$GPRMC,023456,A,3242.6902,N,11709.66839,W,000.0,000.0,120714,,,A*53
$GPGGA,023458,3242.69056,N,11709.67097,W,1,04,1.0,11,M,000.0,M,,*49
$GPRMC,023458,A,3242.69056,N,11709.67097,W,000.0,000.0,120714,,,A*61
$GPGGA,023500,3242.68996,N,11709.67296,W,1,04,1.0,11,M,000.0,M,,*42
$GPRMC,023500,A,3242.68996,N,11709.67296,W,000.0,000.0,120714,,,A*6A
$GPGGA,023501,3242.68982,N,11709.67378,W,1,04,1.0,9,M,000.0,M,,*7E
$GPRMC,023501,A,3242.68982,N,11709.67378,W,000.0,000.0,120714,,,A*6F
$GPGGA,023503,3242.6899,N,11709.67436,W,1,04,1.0,9,M,000.0,M,,*42
$GPRMC,023503,A,3242.6899,N,11709.67436,W,000.0,000.0,120714,,,A*53
$GPGGA,023505,3242.68987,N,11709.67583,W,1,04,1.0,8,M,000.0,M,,*7C
$GPRMC,023505,A,3242.68987,N,11709.67583,W,000.0,000.0,120714,,,A*6C
$GPGGA,023506,3242.68981,N,11709.67759,W,1,04,1.0,7,M,000.0,M,,*73
$GPRMC,023506,A,3242.68981,N,11709.67759,W,000.0,000.0,120714,,,A*6C
$GPGGA,023508,3242.6899,N,11709.67824,W,1,04,1.0,6,M,000.0,M,,*49
$GPRMC,023508,A,3242.6899,N,11709.67824,W,000.0,000.0,120714,,,A*57
$GPGGA,023510,3242.69036,N,11709.67933,W,1,04,1.0,5,M,000.0,M,,*70
$GPRMC,023510,A,3242.69036,N,11709.67933,W,000.0,000.0,120714,,,A*6D
$GPGGA,023511,3242.6904,N,11709.68034,W,1,04,1.0,4,M,000.0,M,,*40
$GPRMC,023511,A,3242.6904,N,11709.68034,W,000.0,000.0,120714,,,A*5C
$GPGGA,023513,3242.6904,N,11709.68034,W,1,04,1.0,5,M,000.0,M,,*43
$GPRMC,023513,A,3242.6904,N,11709.68034,W,000.0,000.0,120714,,,A*5E
$GPGGA,023515,3242.6904,N,11709.68034,W,1,04,1.0,5,M,000.0,M,,*45
$GPRMC,023515,A,3242.6904,N,11709.68034,W,000.0,000.0,120714,,,A*58
$GPGGA,023516,3242.6904,N,11709.68034,W,1,04,1.0,5,M,000.0,M,,*46
$GPRMC,023516,A,3242.6904,N,11709.68034,W,000.0,000.0,120714,,,A*5B
$GPGGA,023518,3242.6904,N,11709.68034,W,1,04,1.0,5,M,000.0,M,,*48
$GPRMC,023518,A,3242.6904,N,11709.68034,W,000.0,000.0,120714,,,A*55
$GPGGA,023520,3242.6904,N,11709.68034,W,1,04,1.0,5,M,000.0,M,,*43
$GPRMC,023520,A,3242.6904,N,11709.68034,W,000.0,000.0,120714,,,A*5E
$GPGGA,023521,3242.69103,N,11709.68237,W,1,04,1.0,2,M,000.0,M,,*72
$GPRMC,023521,A,3242.69103,N,11709.68237,W,000.0,000.0,120714,,,A*68
$GPGGA,023523,3242.69139,N,11709.68337,W,1,04,1.0,1,M,000.0,M,,*7B
$GPRMC,023523,A,3242.69139,N,11709.68337,W,000.0,000.0,120714,,,A*62
$GPGGA,023525,3242.6915,N,11709.6847,W,1,04,1.0,2,M,000.0,M,,*75
$GPRMC,023525,A,3242.6915,N,11709.6847,W,000.0,000.0,120714,,,A*6F
$GPGGA,023526,3242.69166,N,11709.68658,W,1,04,1.0,1,M,000.0,M,,*78
$GPRMC,023526,A,3242.69166,N,11709.68658,W,000.0,000.0,120714,,,A*61
$GPGGA,023528,3242.6919,N,11709.68771,W,1,04,1.0,2,M,000.0,M,,*46
$GPRMC,023528,A,3242.6919,N,11709.68771,W,000.0,000.0,120714,,,A*5C
$GPGGA,023530,3242.69242,N,11709.69111,W,1,04,1.0,1,M,000.0,M,,*71
$GPRMC,023530,A,3242.69242,N,11709.69111,W,000.0,000.0,120714,,,A*68
$GPGGA,023532,3242.69202,N,11709.69667,W,1,04,1.0,1,M,000.0,M,,*71
$GPRMC,023532,A,3242.69202,N,11709.69667,W,000.0,000.0,120714,,,A*68
$GPGGA,023533,3242.69432,N,11709.71585,W,1,04,1.0,1,M,000.0,M,,*73
$GPRMC,023533,A,3242.69432,N,11709.71585,W,000.0,000.0,120714,,,A*6A
$GPGGA,023535,3242.69351,N,11709.72241,W,1,04,1.0,1,M,000.0,M,,*7B
$GPRMC,023535,A,3242.69351,N,11709.72241,W,000.0,000.0,120714,,,A*62
$GPGGA,023537,3242.69303,N,11709.7382,W,1,04,1.0,-1,M,000.0,M,,*6F
$GPRMC,023537,A,3242.69303,N,11709.7382,W,000.0,000.0,120714,,,A*5B
$GPGGA,023538,3242.69148,N,11709.75352,W,1,04,1.0,-1,M,000.0,M,,*55
$GPRMC,023538,A,3242.69148,N,11709.75352,W,000.0,000.0,120714,,,A*61
$GPGGA,023540,3242.69151,N,11709.76031,W,1,04,1.0,0,M,000.0,M,,*7B
$GPRMC,023540,A,3242.69151,N,11709.76031,W,000.0,000.0,120714,,,A*63
$GPGGA,023542,3242.69003,N,11709.77481,W,1,04,1.0,-1,M,000.0,M,,*5D
$GPRMC,023542,A,3242.69003,N,11709.77481,W,000.0,000.0,120714,,,A*69
$GPGGA,023544,3242.69051,N,11709.78792,W,1,04,1.0,-3,M,000.0,M,,*50
$GPRMC,023544,A,3242.69051,N,11709.78792,W,000.0,000.0,120714,,,A*66
$GPGGA,023545,3242.69128,N,11709.80144,W,1,04,1.0,-3,M,000.0,M,,*54
$GPRMC,023545,A,3242.69128,N,11709.80144,W,000.0,000.0,120714,,,A*62
$GPGGA,023547,3242.69032,N,11709.81012,W,1,04,1.0,-3,M,000.0,M,,*5F
$GPRMC,023547,A,3242.69032,N,11709.81012,W,000.0,000.0,120714,,,A*69
$GPGGA,023549,3242.68417,N,11709.83012,W,1,04,1.0,-2,M,000.0,M,,*50
$GPRMC,023549,A,3242.68417,N,11709.83012,W,000.0,000.0,120714,,,A*67
$GPGGA,023550,3242.67774,N,11709.85002,W,1,04,1.0,-2,M,000.0,M,,*56
$GPRMC,023550,A,3242.67774,N,11709.85002,W,000.0,000.0,120714,,,A*61
$GPGGA,023552,3242.67748,N,11709.85773,W,1,04,1.0,-3,M,000.0,M,,*5B
$GPRMC,023552,A,3242.67748,N,11709.85773,W,000.0,000.0,120714,,,A*6D
$GPGGA,023554,3242.6833,N,11709.86668,W,1,04,1.0,-3,M,000.0,M,,*61
$GPRMC,023554,A,3242.6833,N,11709.86668,W,000.0,000.0,120714,,,A*57
$GPGGA,023555,3242.68413,N,11709.88267,W,1,04,1.0,-2,M,000.0,M,,*52
$GPRMC,023555,A,3242.68413,N,11709.88267,W,000.0,000.0,120714,,,A*65
$GPGGA,023557,3242.68553,N,11709.88949,W,1,04,1.0,-2,M,000.0,M,,*52
$GPRMC,023557,A,3242.68553,N,11709.88949,W,000.0,000.0,120714,,,A*65
$GPGGA,023559,3242.68668,N,11709.90269,W,1,04,1.0,-3,M,000.0,M,,*56
$GPRMC,023559,A,3242.68668,N,11709.90269,W,000.0,000.0,120714,,,A*60
$GPGGA,023601,3242.68622,N,11709.91796,W,1,04,1.0,-3,M,000.0,M,,*52
$GPRMC,023601,A,3242.68622,N,11709.91796,W,000.0,000.0,120714,,,A*64
$GPGGA,023602,3242.68594,N,11709.9326,W,1,04,1.0,-3,M,000.0,M,,*61
$GPRMC,023602,A,3242.68594,N,11709.9326,W,000.0,000.0,120714,,,A*57
$GPGGA,023604,3242.68647,N,11709.94028,W,1,04,1.0,-3,M,000.0,M,,*53
$GPRMC,023604,A,3242.68647,N,11709.94028,W,000.0,000.0,120714,,,A*65
$GPGGA,023606,3242.68967,N,11709.95238,W,1,04,1.0,-2,M,000.0,M,,*5F
$GPRMC,023606,A,3242.68967,N,11709.95238,W,000.0,000.0,120714,,,A*68
$GPGGA,023607,3242.69038,N,11709.96584,W,1,04,1.0,-1,M,000.0,M,,*5C
$GPRMC,023607,A,3242.69038,N,11709.96584,W,000.0,000.0,120714,,,A*68
$GPGGA,023609,3242.69078,N,11709.97143,W,1,04,1.0,0,M,000.0,M,,*74
$GPRMC,023609,A,3242.69078,N,11709.97143,W,000.0,000.0,120714,,,A*6C
$GPGGA,023611,3242.69067,N,11709.9842,W,1,04,1.0,0,M,000.0,M,,*4C
$GPRMC,023611,A,3242.69067,N,11709.9842,W,000.0,000.0,120714,,,A*54
$GPGGA,023613,3242.69078,N,11709.99709,W,1,04,1.0,1,M,000.0,M,,*78
$GPRMC,023613,A,3242.69078,N,11709.99709,W,000.0,000.0,120714,,,A*61
$GPGGA,023614,3242.69081,N,11710.00805,W,1,04,1.0,2,M,000.0,M,,*71
$GPRMC,023614,A,3242.69081,N,11710.00805,W,000.0,000.0,120714,,,A*6B
$GPGGA,023616,3242.69096,N,11710.01291,W,1,04,1.0,2,M,000.0,M,,*73
$GPRMC,023616,A,3242.69096,N,11710.01291,W,000.0,000.0,120714,,,A*69
$GPGGA,023618,3242.69124,N,11710.02367,W,1,04,1.0,2,M,000.0,M,,*7E
$GPRMC,023618,A,3242.69124,N,11710.02367,W,000.0,000.0,120714,,,A*64
$GPGGA,023620,3242.69113,N,11710.03428,W,1,04,1.0,3,M,000.0,M,,*7D
$GPRMC,023620,A,3242.69113,N,11710.03428,W,000.0,000.0,120714,,,A*66
$GPGGA,023621,3242.69217,N,11710.04007,W,1,04,1.0,2,M,000.0,M,,*74
$GPRMC,023621,A,3242.69217,N,11710.04007,W,000.0,000.0,120714,,,A*6E
$GPGGA,023623,3242.69223,N,11710.04325,W,1,04,1.0,2,M,000.0,M,,*72
$GPRMC,023623,A,3242.69223,N,11710.04325,W,000.0,000.0,120714,,,A*68
$GPGGA,023625,3242.69108,N,11710.04899,W,1,04,1.0,2,M,000.0,M,,*72
$GPRMC,023625,A,3242.69108,N,11710.04899,W,000.0,000.0,120714,,,A*68
$GPGGA,023626,3242.68866,N,11710.05233,W,1,04,1.0,1,M,000.0,M,,*79
$GPRMC,023626,A,3242.68866,N,11710.05233,W,000.0,000.0,120714,,,A*60
$GPGGA,023628,3242.68887,N,11710.05409,W,1,04,1.0,1,M,000.0,M,,*77
$GPRMC,023628,A,3242.68887,N,11710.05409,W,000.0,000.0,120714,,,A*6E
$GPGGA,023630,3242.69072,N,11710.0539,W,1,04,1.0,1,M,000.0,M,,*4A
$GPRMC,023630,A,3242.69072,N,11710.0539,W,000.0,000.0,120714,,,A*53
$GPGGA,023633,3242.69072,N,11710.0539,W,1,04,1.0,-1,M,000.0,M,,*64
$GPRMC,023633,A,3242.69072,N,11710.0539,W,000.0,000.0,120714,,,A*50
$GPGGA,023635,3242.69072,N,11710.0539,W,1,04,1.0,-1,M,000.0,M,,*62
$GPRMC,023635,A,3242.69072,N,11710.0539,W,000.0,000.0,120714,,,A*56
$GPGGA,023638,3242.69072,N,11710.0539,W,1,04,1.0,-1,M,000.0,M,,*6F
$GPRMC,023638,A,3242.69072,N,11710.0539,W,000.0,000.0,120714,,,A*5B
$GPGGA,023641,3242.68986,N,11710.05631,W,1,04,1.0,0,M,000.0,M,,*70
$GPRMC,023641,A,3242.68986,N,11710.05631,W,000.0,000.0,120714,,,A*68
$GPGGA,023645,3242.68875,N,11710.06139,W,1,04,1.0,0,M,000.0,M,,*75
$GPRMC,023645,A,3242.68875,N,11710.06139,W,000.0,000.0,120714,,,A*6D
$GPGGA,023647,3242.68829,N,11710.06395,W,1,04,1.0,3,M,000.0,M,,*79
$GPRMC,023647,A,3242.68829,N,11710.06395,W,000.0,000.0,120714,,,A*62
$GPGGA,023648,3242.68811,N,11710.06596,W,1,04,1.0,3,M,000.0,M,,*78
$GPRMC,023648,A,3242.68811,N,11710.06596,W,000.0,000.0,120714,,,A*63
$GPGGA,023650,3242.68807,N,11710.06693,W,1,04,1.0,2,M,000.0,M,,*71
$GPRMC,023650,A,3242.68807,N,11710.06693,W,000.0,000.0,120714,,,A*6B
$GPGGA,023652,3242.68784,N,11710.06844,W,1,04,1.0,1,M,000.0,M,,*70
$GPRMC,023652,A,3242.68784,N,11710.06844,W,000.0,000.0,120714,,,A*69
$GPGGA,023653,3242.68778,N,11710.06911,W,1,04,1.0,1,M,000.0,M,,*73
$GPRMC,023653,A,3242.68778,N,11710.06911,W,000.0,000.0,120714,,,A*6A
$GPGGA,023655,3242.68778,N,11710.06911,W,1,04,1.0,0,M,000.0,M,,*74
$GPRMC,023655,A,3242.68778,N,11710.06911,W,000.0,000.0,120714,,,A*6C
$GPGGA,023657,3242.68778,N,11710.06911,W,1,04,1.0,1,M,000.0,M,,*77
$GPRMC,023657,A,3242.68778,N,11710.06911,W,000.0,000.0,120714,,,A*6E
$GPGGA,023658,3242.68778,N,11710.06911,W,1,04,1.0,0,M,000.0,M,,*79
$GPRMC,023658,A,3242.68778,N,11710.06911,W,000.0,000.0,120714,,,A*61
$GPGGA,023700,3242.6878,N,11710.06824,W,1,04,1.0,0,M,000.0,M,,*45
$GPRMC,023700,A,3242.6878,N,11710.06824,W,000.0,000.0,120714,,,A*5D
$GPGGA,023702,3242.68734,N,11710.07048,W,1,04,1.0,1,M,000.0,M,,*7A
$GPRMC,023702,A,3242.68734,N,11710.07048,W,000.0,000.0,120714,,,A*63
$GPGGA,023704,3242.68693,N,11710.07276,W,1,04,1.0,0,M,000.0,M,,*7E
$GPRMC,023704,A,3242.68693,N,11710.07276,W,000.0,000.0,120714,,,A*66
